[
  {
    "id": "wuhan",
    "name": "Wuhan, China",
    "label": "Wuhan University / B.S. in GIS",
    "lat": 30.5928,
    "lon": 114.3055,
    "summary": "Undergraduate education at Wuhan University, earning B.S. in Geographic Information System.",
    "camera": {
      "center": [114.3055, 30.5928],
      "zoom": 5.0
    }
  },
  {
    "id": "santa-barbara",
    "name": "Santa Barbara, California",
    "label": "UC Santa Barbara / Graduate Studies",
    "lat": 34.4140,
    "lon": -119.8489,
    "summary": "M.A. and Ph.D. in Geography from UCSB, specializing in Cartography, GIS, and Cognitive Science.",
    "camera": {
      "center": [-119.8489, 34.4140],
      "zoom": 9.5
    }
  },
  {
    "id": "stanford",
    "name": "Stanford, California",
    "label": "Stanford AI Lab / Postdoctoral Research",
    "lat": 37.4275,
    "lon": -122.1697,
    "summary": "Postdoctoral Scholar at Stanford Artificial Intelligence Laboratory, Department of Computer Science.",
    "camera": {
      "center": [-122.1697, 37.4275],
      "zoom": 9.5
    }
  },
  {
    "id": "athens-ga",
    "name": "Athens, Georgia",
    "label": "University of Georgia / Assistant Professor",
    "lat": 33.9519,
    "lon": -83.3779,
    "summary": "Assistant Professor at UGA Geography, affiliated with Computer Science and AI Institute. Received AAG Nystrom Award in 2023.",
    "camera": {
      "center": [-83.3779, 33.9519],
      "zoom": 9.5
    }
  },
  {
    "id": "austin",
    "name": "Austin, Texas",
    "label": "UT Austin / Current Position",
    "lat": 30.2672,
    "lon": -97.7431,
    "summary": "Assistant Professor at UT Austin Geography and the Environment, directing the SEAI Lab. Also Visiting Faculty at Google Research.",
    "camera": {
      "center": [-97.7431, 30.2672],
      "zoom": 5.0
    }
  }
]
